%time,field.header.seq,field.header.stamp,field.header.frame_id,field.child_frame_id,field.pose.pose.position.x,field.pose.pose.position.y,field.pose.pose.position.z,field.pose.pose.orientation.x,field.pose.pose.orientation.y,field.pose.pose.orientation.z,field.pose.pose.orientation.w,field.twist.twist.linear.x,field.twist.twist.linear.y,field.twist.twist.linear.z,field.twist.twist.angular.x,field.twist.twist.angular.y,field.twist.twist.angular.z
1774712689871255636,7665,1774712689871255636,map,421,42.10109652118683,-1.0587831045539092e-05,0.009005431846312929,0.0,0.0,0.949505339061119,0.31375087425285286,4.622599139651375,0.3142988148892858,8.465067100861737e-05,0.0,0.0,0.0
1774712689891206502,7666,1774712689891206502,map,422,42.193767663625465,-0.00036173381241596993,0.009006469731967883,0.0,0.0,0.9422570894880873,0.3348903959647675,4.541551863414053,0.32290603343675883,5.0896039583848144e-05,0.0,0.0,0.0
1774712689911270380,7667,1774712689911270380,map,423,42.284836918050324,-0.0008249060298262598,0.009006938899956879,0.0,0.0,0.934175955651836,0.3568126733763517,4.4611081584767875,0.33167598928443587,2.0595348417000758e-05,0.0,0.0,0.0
1774712689931259393,7668,1774712689931259393,map,424,42.37431662422251,-0.0014119449872387786,0.00900690143097362,0.0,0.0,0.9251799643110223,0.37952869935942307,4.380778475276649,0.34042114436003734,-6.834136663892872e-06,0.0,0.0,0.0
1774712689951264619,7669,1774712689951264619,map,425,42.46221414992152,-0.0021364713664639608,0.009006344640104929,0.0,0.0,0.9151893778872213,0.4030240719887594,4.302170227499385,0.3494055333390944,-3.650717173729251e-05,0.0,0.0,0.0
1774712689971263647,7670,1774712689971263647,map,425,42.548515861525075,1.2836953722228372e-16,0.009005306280198393,0.0,0.0,0.9041096005586206,0.42730063208206415,4.237063865348064,0.11725157967152855,-6.35183163538204e-05,0.0,0.0,0.0
1774712689991275548,7671,1774712689991275548,map,426,42.63328220229715,3.434752482434078e-16,0.009004016193656353,0.0,0.0,0.8918557495969183,0.4523199331346332,4.162406309709922,0.12017222058539012,-6.490844890545161e-05,0.0,0.0,0.0
1774712690011275768,7672,1774712690011275768,map,427,42.71655919737326,8.500145032286355e-17,0.009002782770110346,0.0,0.0,0.8783307266493382,0.4780534851077288,4.087925240665871,0.12303762776471605,-4.621575163626509e-05,0.0,0.0,0.0
1774712690031267881,7673,1774712690031267881,map,428,42.798353625010144,-0.00018544099271896436,0.009001858108193936,0.0,0.0,0.8783307266493382,0.4780534851077288,4.072519581589279,0.37530692598114035,-4.621575163626509e-05,0.0,0.0,0.0
1774712690051269531,7674,1774712690051269531,map,429,42.88018132310446,-0.0013627016896212247,0.009000953866077941,0.0,0.0,0.8634509597723334,0.5044327904371763,4.001312100967043,0.38367860792211506,-4.4384094863777045e-05,0.0,0.0,0.0
1774712690071300268,7675,1774712690071300268,map,430,42.96061533750742,-0.0027205452569443733,0.008999966338897556,0.0,0.0,0.847117956493863,0.53140490003919,3.9314188711279043,0.3913087885467932,-5.026784033882593e-05,0.0,0.0,0.0
1774712690091257572,7676,1774712690091257572,map,430,43.039566224000325,-3.1051550219984847e-16,0.008999143596637352,0.0,0.0,0.8292753758504356,0.5588401837807645,3.8841609882120203,0.131140934028112,-3.0841588748832217e-05,0.0,0.0,0.0
1774712690111216783,7677,1774712690111216783,map,431,43.11728670487014,7.546047120499111e-17,0.008998708711516066,0.0,0.0,0.8098329550988357,0.5866605362864347,3.8233652622680445,0.1334543100659713,1.338737280733615e-05,0.0,0.0,0.0
1774712690131210327,7678,1774712690131210327,map,432,43.19381321660684,-0.0005392147425319486,0.008998976534128355,0.0,0.0,0.8098329550988357,0.5866605362864347,3.804142586834164,0.40550111855822224,1.338737280733615e-05,0.0,0.0,0.0
1774712690151254892,7679,1774712690151254892,map,433,43.27038455541519,-0.002276421064355599,0.009000314578287547,0.0,0.0,0.7887515961767232,0.6147120622931288,3.7454411852864933,0.41122453611067566,7.165566170120832e-05,0.0,0.0,0.0
1774712690171267509,7680,1774712690171267509,map,433,43.345681528738275,-1.726049858596923e-16,0.00900230756103477,0.0,0.0,0.766006296930849,0.642833067803989,3.7152318619469127,0.13758205399421486,0.00011763642245389548,0.0,0.0,0.0
1774712690191264867,7681,1774712690191264867,map,434,43.42002989066912,-2.2139408362154e-16,0.009004956434032926,0.0,0.0,0.741593049071888,0.6708500201745993,3.669100603672808,0.13883060865877883,0.0001743169732318935,0.0,0.0,0.0
1774712690211276292,7682,1774712690211276292,map,435,43.49347998910666,-0.0006059104531941844,0.009008443777322255,0.0,0.0,0.741593049071888,0.6708500201745993,3.6477077992599045,0.41928627884510095,0.0001743169732318935,0.0,0.0,0.0
1774712690231316804,7683,1774712690231316804,map,436,43.56698758561493,-0.0026772952041499423,0.009013267484544734,0.0,0.0,0.715600088356394,0.6985102100501618,3.60545188202309,0.4209372013339782,0.0002463467566775315,0.0,0.0,0.0
1774712690251270771,7684,1774712690251270771,map,436,43.63950252639832,4.0115480381963664e-16,0.009018179606659476,0.0,0.0,0.6881107679080583,0.7256056581153308,3.5943398572456253,0.14033211343895222,0.00024258975594671436,0.0,0.0,0.0
1774712690271269559,7685,1774712690271269559,map,437,43.71143631546596,2.5717275531356165e-16,0.009022945523896871,0.0,0.0,0.6592410556319193,0.751931666156781,3.5664831138229673,0.13996281901922414,0.00020978536998286204,0.0,0.0,0.0
1774712690291262388,7686,1774712690291262388,map,438,43.78287135675251,-0.0014563545015529658,0.009027142217950371,0.0,0.0,0.6592410556319193,0.751931666156781,3.544517303631337,0.41927136127773823,0.00020978536998286204,0.0,0.0,0.0
1774712690311269521,7687,1774712690311269521,map,439,43.854337899721195,-0.003683372688248981,0.009030734671016121,0.0,0.0,0.6292210906831389,0.7772263628052777,3.5225434819333015,0.4152986227503741,0.0001679172495414678,0.0,0.0,0.0
1774712690331268072,7688,1774712690331268072,map,439,43.92514539177143,1.240327285323417e-16,0.009033156812591665,0.0,0.0,0.598286266053856,0.8012824370041656,3.5300709667760266,0.13765659846608524,2.796074060958041e-05,0.0,0.0,0.0
1774712690351279258,7689,1774712690351279258,map,440,43.995812779646705,-0.0004309576070393227,0.009033716109765852,0.0,0.0,0.598286266053856,0.8012824370041656,3.5089624040836243,0.40930820235557286,2.796074060958041e-05,0.0,0.0,0.0
1774712690371265649,7690,1774712690371265649,map,441,44.06654791253116,-0.0026378933660428858,0.009032265442680673,0.0,0.0,0.5666917503978928,0.8239298878126539,3.503199387002041,0.40086958114873505,-8.100647913328328e-05,0.0,0.0,0.0
1774712690391279220,7691,1774712690391279220,map,441,44.13697637992741,1.734723475976807e-17,0.009030364963362772,0.0,0.0,0.5347825214810877,0.8449897364573903,3.523629356199619,0.13207298816497248,-0.00010877113430355365,0.0,0.0,0.0
1774712690411261558,7692,1774712690411261558,map,442,44.207495831249716,-3.0010716134398763e-16,0.009028245883455424,0.0,0.0,0.5029055781435121,0.8643413558728634,3.530760998256324,0.12822133308426342,-7.625175153277705e-05,0.0,0.0,0.0
1774712690431261301,7693,1774712690431261301,map,443,44.278213457517914,-0.0016445464217909236,0.009026720723836467,0.0,0.0,0.5029055781435121,0.8643413558728634,3.5128389203911827,0.3777256301671994,-7.625175153277705e-05,0.0,0.0,0.0
1774712690451272726,7694,1774712690451272726,map,443,44.34882318001767,-3.3306690738754696e-16,0.009026121652949883,0.0,0.0,0.47138916804250436,0.8819253099056606,3.544590410483361,0.12386976573469921,-7.288086102746842e-06,0.0,0.0,0.0
1774712690471265077,7695,1774712690471265077,map,444,44.41975603794438,-4.85722573273506e-17,0.009026299873413288,0.0,0.0,0.44051729506545284,0.8977441243184033,3.564428521439425,0.11922193660437963,5.562315948622739e-05,0.0,0.0,0.0
1774712690491265773,7696,1774712690491265773,map,445,44.491102862855946,-0.0006681390814738128,0.009027412462968865,0.0,0.0,0.44051729506545284,0.8977441243184033,3.5492372586238226,0.3496847670801706,5.562315948622739e-05,0.0,0.0,0.0
1774712690511255264,7697,1774712690511255264,map,446,44.56247894934422,-0.0024014828936709948,0.009028238411415057,0.0,0.0,0.41050259161487357,0.9118594312049815,3.5769232985090236,0.3353485394774396,3.915221626884004e-05,0.0,0.0,0.0
1774712690531276226,7698,1774712690531276226,map,446,44.63426985913763,-2.7755575615628914e-16,0.00902881585773962,0.0,0.0,0.3814874266113859,0.9243740278358228,3.621169399122196,0.1096808332616026,1.6801050473602085e-05,0.0,0.0,0.0
1774712690551260471,7699,1774712690551260471,map,447,44.706720938623555,-8.109832250191573e-17,0.009029138278683173,0.0,0.0,0.3535662514530713,0.9354094856443479,3.6541912065059985,0.10508602199842332,7.543075467371136e-06,0.0,0.0,0.0
1774712690571257829,7700,1774712690571257829,map,448,44.779861495122525,-0.0011979578604092468,0.009029289178065928,0.0,0.0,0.3535662514530713,0.9354094856443479,3.642726783906581,0.3077304347239438,7.543075467371136e-06,0.0,0.0,0.0
1774712690591178655,7701,1774712690591178655,map,449,44.8530010578065,-0.0025521298920803057,0.009028655167363129,0.0,0.0,0.32676771836829455,0.945104681097485,3.6799591063753123,0.2948182582172305,-4.859494482528549e-05,0.0,0.0,0.0
1774712690611244916,7702,1774712690611244916,map,449,44.92679072795024,-2.220446049250313e-16,0.009027307239121157,0.0,0.0,0.30109457089152514,0.9535942844730396,3.7281320662395845,0.09643596253752484,-0.00010431449910416763,0.0,0.0,0.0
1774712690631222963,7703,1774712690631222963,map,450,45.001370306673515,-2.456498138394027e-06,0.009025220287115701,0.0,0.0,0.30109457089152514,0.9535942844730396,3.7186808387607626,0.2822789711894771,-0.00010431449910416763,0.0,0.0,0.0
1774712690651266098,7704,1774712690651266098,map,451,45.075978400282715,-0.001202670974657847,0.009022982583083693,0.0,0.0,0.27655698689092234,0.9609975197688151,3.7585886029633975,0.2700792405817374,-0.00011302244298431521,0.0,0.0,0.0
1774712690671276330,7705,1774712690671276330,map,451,45.15133864446804,-1.249000902703301e-16,0.009020817522806264,0.0,0.0,0.25314523983676973,0.9674282854806264,3.8069611964996515,0.08823940910222117,-0.00010688354007231682,0.0,0.0,0.0
1774712690691259622,7706,1774712690691259622,map,452,45.22749043312622,-5.551115123125783e-17,0.009018657134798467,0.0,0.0,0.23087120873983882,0.9729843189769328,3.847289470927464,0.0842260342118315,-0.00011127301888219862,0.0,0.0,0.0
1774712690711271524,7707,1774712690711271524,map,453,45.30444807736101,-1.2793585635328952e-16,0.009016440956985039,0.0,0.0,0.20972389942649866,0.9777606486299926,3.8875501604904943,0.08027012369484576,-9.967760425078315e-05,0.0,0.0,0.0
1774712690731258630,7708,1774712690731258630,map,454,45.38222530500117,-0.000762287132292705,0.009014446914573933,0.0,0.0,0.20972389942649866,0.9777606486299926,3.8813087142506424,0.23437620334285114,-9.967760425078315e-05,0.0,0.0,0.0
1774712690751228570,7709,1774712690751228570,map,455,45.460001841757936,-0.0015457953356730076,0.009013287043587932,0.0,0.0,0.1896953268692025,0.981843003215884,3.922169436368761,0.22271136110959922,-4.475088193311057e-05,0.0,0.0,0.0
1774712690771261692,7710,1774712690771261692,map,455,45.538559049355406,1.5612511283791264e-17,0.009013087532762703,0.0,0.0,0.1707770311857609,0.9853097003579016,3.9674327777020992,0.07243190865082738,2.915923330487655e-05,0.0,0.0,0.0
1774712690791269779,7711,1774712690791269779,map,456,45.61791700690293,-8.153200337090993e-17,0.00901389485118355,0.0,0.0,0.15295449168594183,0.9882332333377051,4.006237748970933,0.06851554060918286,8.391690381754128e-05,0.0,0.0,0.0
1774712690811278343,7712,1774712690811278343,map,457,45.69805180311294,-0.0001109209228099113,0.009015573484084776,0.0,0.0,0.15295449168594183,0.9882332333377051,4.00185385505055,0.19950188449049577,8.391690381754128e-05,0.0,0.0,0.0
1774712690831258296,7713,1774712690831258296,map,458,45.77819477972226,-0.0007099308860106651,0.009017993523592498,0.0,0.0,0.13622050897388674,0.9906785416747933,4.040596785285124,0.1880741661593608,0.00012379097663577356,0.0,0.0,0.0
1774712690851265192,7714,1774712690851265192,map,459,45.85909800570594,-0.0012028314166936897,0.00902102438140167,0.0,0.0,0.12054591021562953,0.992707753334427,4.077440597511995,0.17664741658291327,0.00016417232663359875,0.0,0.0,0.0
1774712690871245384,7715,1774712690871245384,map,459,45.94071557393749,3.209238430557093e-17,0.009024546299488267,0.0,0.0,0.10591805322578617,0.9943748619111705,4.116704837589277,0.05702278470146871,0.00019057742941253717,0.0,0.0,0.0
1774712690891263008,7716,1774712690891263008,map,460,46.02305585100349,5.2475385148298415e-17,0.009028183471961363,0.0,0.0,0.09230519150191709,0.9957307626169809,4.149742479004854,0.05324951346727236,0.00015853782150983435,0.0,0.0,0.0
1774712690911212444,7717,1774712690911212444,map,461,46.106055779478176,1.962405932198763e-17,0.009031261453480146,0.0,0.0,0.07968956691164562,0.9968197294021794,4.1825325630410815,0.049522463859807964,7.518548357787202e-05,0.0,0.0,0.0
1774712690931258201,7718,1774712690931258201,map,462,46.18971413499144,-0.0002631147120505338,0.009032765264928713,0.0,0.0,0.07968956691164562,0.9968197294021794,4.180373804152416,0.14319904326492106,7.518548357787202e-05,0.0,0.0,0.0
1774712690951244354,7719,1774712690951244354,map,463,46.27337252325583,-0.0005761289061184836,0.009032841859548274,0.0,0.0,0.06804167114498628,0.9976824800445268,4.209716629306821,0.13218920623081198,-7.879413856099488e-06,0.0,0.0,0.0
1774712690971237421,7720,1774712690971237421,map,464,46.35760997535606,-0.0008193900736867274,0.009031699848414655,0.0,0.0,0.057339833693183045,0.9983547182600171,4.238995040947309,0.12138355171182735,-8.228630100258424e-05,0.0,0.0,0.0
1774712690991231203,7721,1774712690991231203,map,464,46.44242082547123,-4.7704895589362195e-18,0.009029321212784802,0.0,0.0,0.04755961924370732,0.9988684010506057,4.2649337321045895,0.03855473713665675,-0.00015907362414868244,0.0,0.0,0.0
1774712691011225938,7722,1774712691011225938,map,465,46.52772191249737,2.3852447794681098e-17,0.009025686580242437,0.0,0.0,0.038678690173902054,0.9992516994863863,4.2893409514237915,0.03495737357449924,-0.0002339978130534054,0.0,0.0,0.0
1774712691031231164,7723,1774712691031231164,map,466,46.613511157823446,-6.862999751833243e-17,0.009020892472264555,0.0,0.0,0.030677621922367376,0.9995293309919365,4.30882926428656,0.03140167512867431,-0.00027585942975005286,0.0,0.0,0.0
1774712691051221132,7724,1774712691051221132,map,467,46.699689790752146,-2.397047622816952e-05,0.009015375123346481,0.0,0.0,0.030677621922367376,0.9995293309919365,4.308018028703755,0.08931046039826726,-0.00027585942975005286,0.0,0.0,0.0
1774712691071238756,7725,1774712691071238756,map,468,46.78586936183604,-0.00018402855251020142,0.009009855567793525,0.0,0.0,0.023536116512875564,0.999722987241712,4.327556722927721,0.07890394989160204,-0.00027721336802521534,0.0,0.0,0.0
1774712691091223955,7726,1774712691091223955,map,469,46.872435063692656,-0.00029533651701178093,0.009004892601334606,0.0,0.0,0.017233636247243184,0.9998514898632185,4.341883304809839,0.06857011737764801,-0.00024254014813891505,0.0,0.0,0.0
1774712691111240625,7727,1774712691111240625,map,470,46.95928371947445,-0.00036252885450975005,0.009000871019524135,0.0,0.0,0.011746945012403835,0.9999310022610938,4.355966880098961,0.05840657649919807,-0.00018081989131809009,0.0,0.0,0.0
1774712691131253719,7728,1774712691131253719,map,470,47.04641016411392,1.566672139241554e-17,0.008997810023223345,0.0,0.0,0.0070607016440684,0.9999750729354675,4.364900778803205,0.017611133334316693,-0.0001272125761488449,0.0,0.0,0.0
1774712691151231527,7729,1774712691151231527,map,471,47.133708598135584,-2.656295322589486e-17,0.00899554859403016,0.0,0.0,0.0031563740218272843,0.9999950186391102,4.373176121008428,0.01425632427282844,-8.906691793400671e-05,0.0,0.0,0.0
1774712691171226263,7730,1774712691171226263,map,472,47.2211725262009,3.7377869896437765e-17,0.00899395089363458,0.0,0.0,2.2234537345886263e-05,0.9999999997528127,4.376079699727814,0.010964490070773216,-4.829759032609028e-05,0.0,0.0,0.0
1774712691191215038,7731,1774712691191215038,map,473,47.30869432724661,-5.827586677109586e-18,0.008993061260216515,0.0,0.0,-0.0023576145126856627,0.9999972208230429,4.378481792079557,0.007685155141024025,-1.925620651380472e-06,0.0,0.0,0.0
1774712691211217403,7732,1774712691211217403,map,474,47.396264101343704,-1.3220860424192424e-05,0.00899302274776216,0.0,0.0,-0.0023576145126856627,0.9999972208230429,4.378448385045888,0.018751089978153494,-1.925620651380472e-06,0.0,0.0,0.0
1774712691231261730,7733,1774712691231261730,map,475,47.48383385971221,-1.861522702493944e-05,0.008993661083752089,0.0,0.0,-0.00398986948583311,0.9999920404390658,4.375646836245844,0.009065724358765404,3.404480522304586e-05,0.0,0.0,0.0
1774712691251283645,7734,1774712691251283645,map,476,47.571346980546046,1.2594171459231248e-05,0.0089946732715859,0.0,0.0,-0.004885077749800521,0.9999880679365021,4.3720539951341175,-0.0005956150929989149,5.4753390526302407e-05,0.0,0.0,0.0
1774712691271268129,7735,1774712691271268129,map,477,47.65878814931967,8.069035488472302e-05,0.008995933335880578,0.0,0.0,-0.005043924316312208,0.9999872793328379,4.363483820263319,-0.010223227108412933,6.721393564415195e-05,0.0,0.0,0.0
1774712691291268348,7736,1774712691291268348,map,477,47.74605805754607,-2.417770844642675e-17,0.008997362056218771,0.0,0.0,-0.004467451481861721,0.9999900208888373,4.3538288291785765,-0.005180805238259971,7.531674909070054e-05,0.0,0.0,0.0
1774712691311274766,7737,1774712691311274766,map,478,47.83313466973093,-2.5261910618912253e-17,0.008998948348695631,0.0,0.0,-0.003154263801903124,0.9999950252975601,4.33958538929508,-0.008375264999642723,8.604125135854048e-05,0.0,0.0,0.0
1774712691331259489,7738,1774712691331259489,map,479,47.91992658764171,4.423375457151407e-17,0.009000736663434393,0.0,0.0,-0.0011009164455624213,0.9999993939913063,4.323851592227225,-0.011555637579387979,0.00010157463584613078,0.0,0.0,0.0
1774712691351261377,7739,1774712691351261377,map,480,48.00640385897146,-1.9928991182999178e-17,0.009002774891762341,0.0,0.0,0.0016976578434305574,0.999998558977885,4.303996650012035,-0.014771021538406004,0.00010702768193844957,0.0,0.0,0.0
1774712691371228933,7740,1774712691371228933,map,481,48.09248449834738,7.121542191657027e-05,0.009004915457894194,0.0,0.0,0.0016976578434305574,0.999998558977885,4.303746437129334,-0.048702681177582016,0.00010702768193844957,0.0,0.0,0.0
1774712691391263484,7741,1774712691391263484,map,482,48.17856548796279,0.00021755709815773542,0.009006848306049073,0.0,0.0,0.005256442585831384,0.9999861848102412,4.281898601580441,-0.05856089142557077,9.494210062667872e-05,0.0,0.0,0.0
1774712691411269903,7742,1774712691411269903,map,483,48.26421255565157,0.0004151148241560821,0.00900858181609761,0.0,0.0,0.009588264798357114,0.9999540315325283,4.256309805523478,-0.06868993084984838,8.315025810262195e-05,0.0,0.0,0.0
1774712691431262493,7743,1774712691431262493,map,483,48.349348805946306,4.96564594998361e-17,0.009010237985286601,0.0,0.0,0.014736307297142991,0.9998914147282415,4.229207027130103,-0.024699348292639048,8.200470899487717e-05,0.0,0.0,0.0
1774712691451272964,7744,1774712691451272964,map,484,48.433934108653894,1.951563910473908e-18,0.009011752198017114,0.0,0.0,0.020722506284820596,0.9997852658112518,4.197965194869295,-0.028287333512496127,6.508898603142922e-05,0.0,0.0,0.0
1774712691471270322,7745,1774712691471270322,map,485,48.517895125446564,4.9873299934333204e-18,0.009012878589988277,0.0,0.0,0.027610169288025455,0.9996187666064932,4.1647052156673645,-0.03194621905796777,1.993287825209825e-05,0.0,0.0,0.0
1774712691491277456,7746,1774712691491277456,map,486,48.601191359748476,5.717946211655997e-06,0.00901327725634212,0.0,0.0,0.027610169288025455,0.9996187666064932,4.163587689654938,-0.10162501503765409,1.993287825209825e-05,0.0,0.0,0.0
1774712691511268138,7747,1774712691511268138,map,487,48.68449060714234,0.0003226585263683547,0.009012988292136773,0.0,0.0,0.0354493419593412,0.9993714745552075,4.125778726460999,-0.11408163179585495,-1.4458304305830362e-05,0.0,0.0,0.0
1774712691531236886,7748,1774712691531236886,map,488,48.767042148208404,0.0007374383096526412,0.00901249668318125,0.0,0.0,0.044336309559762074,0.9990166623508443,4.086099786965698,-0.12764725188878012,-2.6955563702219955e-05,0.0,0.0,0.0
1774712691551269054,7749,1774712691551269054,map,488,48.848797849881535,-3.2959746043559335e-17,0.009011880437526694,0.0,0.0,0.05438600277646009,0.9985199861304724,4.04425149570141,-0.04491417936229947,-3.3268514922417084e-05,0.0,0.0,0.0
1774712691571274757,7750,1774712691571274757,map,489,48.92968750602902,8.673617379884035e-18,0.009011297455549244,0.0,0.0,0.06569114368671168,0.9978400040292691,3.9975298660084944,-0.049767301260960184,-2.1179843254927682e-05,0.0,0.0,0.0
1774712691591274499,7751,1774712691591274499,map,490,49.0096438988174,-5.919743861770854e-17,0.009010921615668558,0.0,0.0,0.07833617903114769,0.9969269998624773,3.9480127371058367,-0.05473185767891686,2.371459401299541e-06,0.0,0.0,0.0
1774712691611262798,7752,1774712691611262798,map,491,49.0886168138111,0.0003837588776893883,0.009010969046253915,0.0,0.0,0.07833617903114769,0.9969269998624773,3.9446520904452145,-0.17181395147009504,2.371459401299541e-06,0.0,0.0,0.0
1774712691631264686,7753,1774712691631264686,map,492,49.16759585655919,0.0011074843647645525,0.009011093849732754,0.0,0.0,0.09238905848558993,0.9957229845053022,3.891423064267096,-0.18663274411673336,6.904797130357189e-06,0.0,0.0,0.0
1774712691651273965,7754,1774712691651273965,map,492,49.24549997010112,1.0408340855860843e-17,0.00901092480752393,0.0,0.0,0.10787506548915128,0.9941644583496794,3.8393393411171313,-0.06448591771289969,-2.0030810481904178e-05,0.0,0.0,0.0
1774712691671272754,7755,1774712691671272754,map,493,49.322296547893,2.2551405187698492e-17,0.009010335092804442,0.0,0.0,0.12480297330195139,0.9921815448066913,3.7812966322213253,-0.0692418410006066,-5.420332469809244e-05,0.0,0.0,0.0
1774712691691284894,7756,1774712691691284894,map,494,49.39793591168077,0.00014019594405206555,0.009009250939143457,0.0,0.0,0.12480297330195139,0.9921815448066913,3.775789954784579,-0.21542718158081064,-5.420332469809244e-05,0.0,0.0,0.0
1774712691711293458,7757,1774712691711293458,map,495,49.47359324160471,0.001171103417729193,0.009007910926505734,0.0,0.0,0.14320136543984488,0.9896935732519253,3.714949163301572,-0.22953749182176408,-6.656522047012275e-05,0.0,0.0,0.0
1774712691731263637,7758,1774712691731263637,map,495,49.54801937286351,-2.2551405187698492e-17,0.00900657703061185,0.0,0.0,0.16308853632320686,0.9866114378619143,3.6586435671127875,-0.07852365640865311,-6.563670605371179e-05,0.0,0.0,0.0
1774712691751280069,7759,1774712691751280069,map,496,49.62120623220087,-8.673617379884035e-19,0.009005284077887173,0.0,0.0,0.18448698646326858,0.9828349565546098,3.595110426338819,-0.08309639994433438,-6.084038783309299e-05,0.0,0.0,0.0
1774712691771275520,7760,1774712691771275520,map,497,49.69313223727046,0.0004094621252893971,0.009004067038768864,0.0,0.0,0.18448698646326858,0.9828349565546098,3.586853793066808,-0.257301100666415,-6.084038783309299e-05,0.0,0.0,0.0
1774712691791364431,7761,1774712691791364431,map,498,49.765086346808616,0.0019001233233098807,0.009002786150080105,0.0,0.0,0.20742563517919393,0.978250788842262,3.520396456878926,-0.271109956498625,-6.328472179685719e-05,0.0,0.0,0.0
1774712691811268091,7762,1774712691811268091,map,498,49.83567085256083,-6.071532165918825e-17,0.00900155175706221,0.0,0.0,0.23193045611667953,0.9727323699381598,3.463631707164462,-0.09222771195397295,-5.889001191345351e-05,0.0,0.0,0.0
1774712691831265687,7763,1774712691831265687,map,499,49.90496004929796,-7.047314121155779e-17,0.009000397168095047,0.0,0.0,0.2580392853227324,0.9661344250310789,3.396724119732467,-0.09682463138890562,-3.414089479811448e-05,0.0,0.0,0.0
1774712691851277112,7764,1774712691851277112,map,500,49.972962273712895,0.00170697972472994,0.0089997141217288,0.0,0.0,0.2580392853227324,0.9661344250310789,3.3849308507845586,-0.29891953729847454,-3.414089479811448e-05,0.0,0.0,0.0
1774712691871273517,7765,1774712691871273517,map,500,50.04089701895314,-4.163336342344337e-17,0.008999274322926739,0.0,0.0,0.2857684586493085,0.9582986945838956,3.3295347346083317,-0.101410244602542,-1.2859467572612722e-05,0.0,0.0,0.0
1774712691891275405,7766,1774712691891275405,map,501,50.10750731251979,2.2551405187698492e-17,0.008999028038751971,0.0,0.0,0.3151303409808758,0.949048401396513,3.262197241219238,-0.1060213855422647,-6.5433504323680185e-06,0.0,0.0,0.0
1774712691911270618,7767,1774712691911270618,map,502,50.172836219496396,0.0019512771866593715,0.008998897112827722,0.0,0.0,0.3151303409808758,0.949048401396513,3.2475283169355493,-0.32669742174315286,-6.5433504323680185e-06,0.0,0.0,0.0
1774712691931268453,7768,1774712691931268453,map,502,50.238078084431336,3.469446951953614e-18,0.008998898231167396,0.0,0.0,0.3461131812471592,0.9381927657826888,3.1956604402037563,-0.11061199201203809,5.159127870526242e-06,0.0,0.0,0.0
1774712691951272964,7769,1774712691951272964,map,503,50.30201315913907,1.0375814790686277e-16,0.008999003672643405,0.0,0.0,0.3787012458569815,0.9255189713811219,3.1292729550524174,-0.11513574947640137,2.1291699904044043e-05,0.0,0.0,0.0
1774712691971272230,7770,1774712691971272230,map,504,50.364727599755454,0.0028249662481191866,0.008999429751082096,0.0,0.0,0.3787012458569815,0.9255189713811219,3.1113263328028817,-0.3539123036691858,2.1291699904044043e-05,0.0,0.0,0.0
1774712691991266727,7771,1774712691991266727,map,504,50.427283505129836,-4.336808689942018e-17,0.008999756180147873,0.0,0.0,0.41280002935532695,0.9108216816502784,3.065482078254218,-0.11960173173277622,8.961131316309763e-06,0.0,0.0,0.0
1774712692011268854,7772,1774712692011268854,map,505,50.48865976576066,0.001049521805526173,0.008999935507305266,0.0,0.0,0.41280002935532695,0.9108216816502784,3.045764438662975,-0.3671565466620561,8.961131316309763e-06,0.0,0.0,0.0
1774712692031273841,7773,1774712692031273841,map,505,50.55001523251437,4.85722573273506e-17,0.008999680345234493,0.0,0.0,0.448340520725437,0.8938628404154879,3.0024373119495453,-0.12378264599776956,-1.8186989973292797e-05,0.0,0.0,0.0
1774712692051273584,7774,1774712692051273584,map,506,50.61008706981415,3.122502256758253e-17,0.008999333118526175,0.0,0.0,0.48509798200277593,0.874459803454015,2.9431157191050072,-0.12802853204939635,-1.2010721471813556e-05,0.0,0.0,0.0
1774712692071292161,7775,1774712692071292161,map,507,50.66910637041484,0.0029250347033131004,0.008999092728271693,0.0,0.0,0.48509798200277593,0.874459803454015,2.9197838208609768,-0.391387123254054,-1.2010721471813556e-05,0.0,0.0,0.0
1774712692091278076,7776,1774712692091278076,map,507,50.727938683183595,1.214306433183765e-17,0.008998994314860191,0.0,0.0,0.5229633328953043,0.8523551797502231,2.8860009101165534,-0.13156254166367543,3.7949576436523503e-06,0.0,0.0,0.0
1774712692111242532,7777,1774712692111242532,map,508,50.78575381711692,0.001493814462329767,0.008999070277057425,0.0,0.0,0.5229633328953043,0.8523551797502231,2.8609203264719207,-0.4018019920824907,3.7949576436523503e-06,0.0,0.0,0.0
1774712692131263494,7778,1774712692131263494,map,508,50.84351285530351,5.724587470723463e-17,0.008998892660229713,0.0,0.0,0.5615253027335492,0.8274595666194186,2.8332025535503793,-0.13531495430035934,-1.3436050357640212e-05,0.0,0.0,0.0
1774712692151386260,7779,1774712692151386260,map,509,50.90021087573955,0.00013682600423628975,0.008998623707500675,0.0,0.0,0.5615253027335492,0.8274595666194186,2.806455439317832,-0.41128422404077714,-1.3436050357640212e-05,0.0,0.0,0.0
1774712692171309232,7780,1774712692171309232,map,510,50.95712379116393,0.004521926300913944,0.008997919535815743,0.0,0.0,0.6006092306522317,0.7995427143407251,2.756652827070455,-0.418732459310197,-3.5121126475624635e-05,0.0,0.0,0.0
1774712692191269874,7781,1774712692191269874,map,510,51.01270901100141,1.0842021724855044e-17,0.00899721700177133,0.0,0.0,0.639627876270606,0.7686847077297391,2.740688550288119,-0.1405672353855077,-3.444216299959408e-05,0.0,0.0,0.0
1774712692211273670,7782,1774712692211273670,map,511,51.0677401350903,0.0035349824695988423,0.00899652756829714,0.0,0.0,0.639627876270606,0.7686847077297391,2.7112930346643784,-0.42429112354649634,-3.444216299959408e-05,0.0,0.0,0.0
1774712692231272935,7783,1774712692231272935,map,511,51.12248649428008,-5.377642775528102e-17,0.008995851115654747,0.0,0.0,0.6782956515700104,0.7347890915502319,2.7042645706859147,-0.14177413751735238,-3.230658055401521e-05,0.0,0.0,0.0
1774712692251240491,7784,1774712692251240491,map,512,51.1767530307297,0.002648765813939658,0.008995204508638584,0.0,0.0,0.6782956515700104,0.7347890915502319,2.6740272478443354,-0.42746350967610797,-3.230658055401521e-05,0.0,0.0,0.0
1774712692271271944,7785,1774712692271271944,map,512,51.230807137430006,2.42861286636753e-17,0.008994508132124577,0.0,0.0,0.7159996676721446,0.6981006201783367,2.6714961303512594,-0.1424924729370619,-3.6482788431534226e-05,0.0,0.0,0.0
1774712692291273355,7786,1774712692291273355,map,513,51.284385279218746,0.001851110015138549,0.008993778054782828,0.0,0.0,0.7159996676721446,0.6981006201783367,2.6409972817602663,-0.4270000433904282,-3.6482788431534226e-05,0.0,0.0,0.0
1774712692311265230,7787,1774712692311265230,map,513,51.337814242936695,-3.0357660829594124e-17,0.008993072125867186,0.0,0.0,0.7521965096091735,0.6589388521947819,2.649686366613632,-0.1422283444831134,-3.4423985269523824e-05,0.0,0.0,0.0
1774712692331260681,7788,1774712692331260681,map,514,51.39092946903319,0.0011442870876690863,0.008992383413661178,0.0,0.0,0.7521965096091735,0.6589388521947819,2.619505288913714,-0.4233896354353188,-3.4423985269523824e-05,0.0,0.0,0.0
1774712692351279973,7789,1774712692351279973,map,514,51.44394707082481,1.0408340855860843e-17,0.008992281723265256,0.0,0.0,0.7864021954443849,0.617714810410315,2.6355904522384455,-0.1400722276083164,2.357618455348773e-06,0.0,0.0,0.0
1774712692371274232,7790,1774712692371274232,map,515,51.496754386314066,0.0005107503169093858,0.008992328881220084,0.0,0.0,0.7864021954443849,0.617714810410315,2.606605366273005,-0.4142049210323787,2.357618455348773e-06,0.0,0.0,0.0
1774712692391273260,7791,1774712692391273260,map,515,51.549512105837046,4.163336342344337e-17,0.008994098701077957,0.0,0.0,0.8179896437068525,0.5752329465428214,2.6312776673528506,-0.13615595317759654,9.713568978128049e-05,0.0,0.0,0.0
1774712692411272287,7792,1774712692411272287,map,516,51.60221034680769,9.215718466126788e-18,0.00899608148575654,0.0,0.0,0.8464417707518617,0.5324812942502797,2.6392230389571893,-0.12986869036731474,0.00027958070594720307,0.0,0.0,0.0
1774712692431260824,7793,1774712692431260824,map,517,51.65526846903274,0.004354628652232118,0.009001672419427037,0.0,0.0,0.8464417707518617,0.5324812942502797,2.615513193420816,-0.3761047930011546,0.00027958070594720307,0.0,0.0,0.0
1774712692451277494,7794,1774712692451277494,map,517,51.7079064278886,4.2500725161431774e-17,0.009007783815155612,0.0,0.0,0.8713203951489925,0.4907145494046448,2.660452420921672,-0.12134570249870613,0.0005026485866626403,0.0,0.0,0.0
1774712692471277475,7795,1774712692471277475,map,518,51.761323836071945,0.003460392785051284,0.00901783575706897,0.0,0.0,0.8713203951489925,0.4907145494046448,2.6403248809623197,-0.34844854196974495,0.0005026485866626403,0.0,0.0,0.0
1774712692491278409,7796,1774712692491278409,map,518,51.81443552592326,1.1622647289044608e-16,0.00902795044794724,0.0,0.0,0.8924654439526979,0.45111576269325127,2.6944566556607192,-0.11168068234156703,0.0005221585972802939,0.0,0.0,0.0
1774712692511272668,7797,1774712692511272668,map,519,51.86847138307299,0.0025704711712002046,0.009038393394639438,0.0,0.0,0.8924654439526979,0.45111576269325127,2.6777705624031314,-0.3195528650961621,0.0005221585972802939,0.0,0.0,0.0
1774712692531264781,7798,1774712692531264781,map,519,51.922308211376595,9.71445146547012e-17,0.009047630525474065,0.0,0.0,0.910091750646962,0.414406811484015,2.739337363129064,-0.10229400204170425,0.00037081107937457573,0.0,0.0,0.0
1774712692551275491,7799,1774712692551275491,map,520,51.97718892290962,0.0017037733277130256,0.009055047323056176,0.0,0.0,0.910091750646962,0.414406811484015,2.7256007009501158,-0.29246202651684094,0.00037081107937457573,0.0,0.0,0.0
1774712692571265459,7800,1774712692571265459,map,520,52.03196139052292,6.938893903907228e-17,0.009060439324618448,0.0,0.0,0.9246759650731651,0.38075498633111926,2.792060513294297,-0.09367058324363198,0.00019131080637574323,0.0,0.0,0.0
1774712692591273307,7801,1774712692591273307,map,521,52.08785382926196,0.0008629079292579852,0.009064266161584386,0.0,0.0,0.9246759650731651,0.38075498633111926,2.7807597506997204,-0.2678642770087034,0.00019131080637574323,0.0,0.0,0.0
1774712692611272096,7802,1774712692611272096,map,521,52.14371220343647,9.020562075079397e-17,0.009065664678763513,0.0,0.0,0.936718887036222,0.35008245695781676,2.8492386596689543,-0.08585758302139745,3.065018894491417e-05,0.0,0.0,0.0
1774712692631242990,7803,1774712692631242990,map,522,52.200713597678686,5.2327906646572125e-05,0.009066277835267336,0.0,0.0,0.936718887036222,0.35008245695781676,2.839960297862756,-0.24527118641096135,3.065018894491417e-05,0.0,0.0,0.0
1774712692651273250,7804,1774712692651273250,map,523,52.25776801523084,0.00220208542224749,0.009064395466107203,0.0,0.0,0.9466618675290559,0.322228658822272,2.901073837234571,-0.22422802172411527,-9.817209452440906e-05,0.0,0.0,0.0
1774712692671269893,7805,1774712692671269893,map,523,52.31592133668706,3.469446951953614e-18,0.009062014169003712,0.0,0.0,0.9548712894551458,0.2970198992900428,2.970777656025291,-0.07164779721466119,-0.00018716888161924303,0.0,0.0,0.0
1774712692691275119,7806,1774712692691275119,map,524,52.37536959122087,0.0011748779041370547,0.00905826979289832,0.0,0.0,0.9548712894551458,0.2970198992900428,2.9646145921109026,-0.20423909234273263,-0.00018716888161924303,0.0,0.0,0.0
1774712692711286306,7807,1774712692711286306,map,524,52.434789898445835,1.7520707107365752e-16,0.009054048103617174,0.0,0.0,0.9616285329454238,0.274354815203291,3.0330679884925105,-0.06516230078968555,-0.00023479333032089557,0.0,0.0,0.0
1774712692731302976,7808,1774712692731302976,map,525,52.495462164493965,0.000245676719499524,0.009049351286353117,0.0,0.0,0.9616285329454238,0.274354815203291,3.0281023280818484,-0.18532090794709655,-0.00023479333032089557,0.0,0.0,0.0
1774712692751228094,7809,1774712692751228094,map,526,52.556152355298764,0.0015888200364707651,0.009044605666811843,0.0,0.0,0.967193823424602,0.25403957945426486,3.0918999457836898,-0.16680107525647703,-0.00024241324280807294,0.0,0.0,0.0
1774712692771275520,7810,1774712692771275520,map,526,52.618063961702454,3.469446951953614e-17,0.009039880942376963,0.0,0.0,0.9717502818063807,0.23601141881108173,3.158220141529673,-0.05276259362649971,-0.0002233286390185461,0.0,0.0,0.0
1774712692791292428,7811,1774712692791292428,map,527,52.681241885032,0.0006230996067584094,0.009035413787750224,0.0,0.0,0.9717502818063807,0.23601141881108173,3.1551416863601873,-0.14906137007466636,-0.0002233286390185461,0.0,0.0,0.0
1774712692811271667,7812,1774712692811271667,map,527,52.744413747300825,-9.367506770274758e-17,0.009031273380522663,0.0,0.0,0.9754770187241065,0.2201013083585129,3.2197114900324046,-0.04677598818105566,-0.0002030588293114473,0.0,0.0,0.0
1774712692831335783,7813,1774712692831335783,map,528,52.80880978260711,3.252606517456513e-17,0.009027278912692982,0.0,0.0,0.9784980619587526,0.20625601262257826,3.280595636265552,-0.041004448251161785,-0.00017603093406854916,0.0,0.0,0.0
1774712692851263761,7814,1774712692851263761,map,529,52.87443127943671,0.0006114130551077845,0.00902375804805413,0.0,0.0,0.9784980619587526,0.20625601262257826,3.278849197248742,-0.11461689324029423,-0.00017603093406854916,0.0,0.0,0.0
1774712692871260881,7815,1774712692871260881,map,529,52.94004600680063,1.43982048506075e-16,0.009020871234453566,0.0,0.0,0.9809374386684308,0.1943238055890701,3.3393997704294947,-0.03534570793857572,-0.00012400744971507904,0.0,0.0,0.0
1774712692891280651,7816,1774712692891280651,map,530,53.0068352555541,-6.396792817664476e-17,0.009018491397756833,0.0,0.0,0.9828809428331523,0.18424183079695422,3.397655835374425,-0.02978298782047739,-6.0050106338580095e-05,0.0,0.0,0.0
1774712692911281347,7817,1774712692911281347,map,531,53.074793108512125,0.000409651156118615,0.009017290358321746,0.0,0.0,0.9828809428331523,0.18424183079695422,3.396807585814561,-0.08155014311131259,-6.0050106338580095e-05,0.0,0.0,0.0
1774712692931286334,7818,1774712692931286334,map,531,53.14274785143327,-1.3877787807814457e-16,0.009016495318292198,0.0,0.0,0.9844077468991438,0.17590164253056656,3.4528296969051766,-0.024327789310947923,-2.6892792282694233e-05,0.0,0.0,0.0
1774712692951255321,7819,1774712692951255321,map,532,53.21180496080935,1.3183898417423734e-16,0.009015971552378146,0.0,0.0,0.9855743271550178,0.16924315540941054,3.507620553224153,-0.018968300457636422,-2.2433543472327705e-05,0.0,0.0,0.0
1774712692971286058,7820,1774712692971286058,map,533,53.28195885403561,0.00017313293166526956,0.009015522876946914,0.0,0.0,0.9855743271550178,0.16924315540941054,3.5073189036138346,-0.04975791502820326,-2.2433543472327705e-05,0.0,0.0,0.0
1774712692991276025,7821,1774712692991276025,map,534,53.35211205203116,0.0002863478099320686,0.009015192617079532,0.0,0.0,0.9864333562324804,0.1641622176748487,3.558440815702409,-0.03436180023495505,-1.4403428283363814e-05,0.0,0.0,0.0
1774712693011272907,7822,1774712693011272907,map,534,53.42328389086291,1.5612511283791264e-16,0.00901498658934816,0.0,0.0,0.9870220141038459,0.1605850045128352,3.609355271269271,-0.00868220819483767,-8.991062147606133e-07,0.0,0.0,0.0
1774712693031234979,7823,1774712693031234979,map,535,53.49547120021628,1.842999944546989e-05,0.009014968607203022,0.0,0.0,0.9870220141038459,0.1605850045128352,3.6093136686562035,-0.019382884860283278,-8.991062147606133e-07,0.0,0.0,0.0
1774712693051243066,7824,1774712693051243066,map,536,53.56765845992317,8.071514724851403e-06,0.009014988983137477,0.0,0.0,0.9873689033997292,0.15843815386205543,3.6557995464358592,-0.004598888777789911,1.2149522224851569e-06,0.0,0.0,0.0
1774712693071242094,7825,1774712693071242094,map,536,53.64077457935036,1.0408340855860843e-17,0.009014894029885617,0.0,0.0,0.9874937640372405,0.15765806667456855,3.702238972512786,0.0011923547873065043,-1.0065869459467564e-05,0.0,0.0,0.0
1774712693091248273,7826,1774712693091248273,map,537,53.71481933214856,1.1102230246251565e-16,0.009014637996532546,0.0,0.0,0.9874097973195195,0.1581830969396714,3.744112563244935,0.005915304836395796,-2.578780922620076e-05,0.0,0.0,0.0
1774712693111242294,7827,1774712693111242294,map,538,53.78970180430399,-5.761167026576688e-05,0.009014122240123967,0.0,0.0,0.9874097973195195,0.1581830969396714,3.7440409702623585,0.023897487058125444,-2.578780922620076e-05,0.0,0.0,0.0
1774712693131218194,7828,1774712693131218194,map,539,53.86458470243987,-0.0002646285120530105,0.009013375515098622,0.0,0.0,0.9871251434566984,0.15994983949848943,3.785791789338427,0.03760703069073679,-3.998085692792882e-05,0.0,0.0,0.0
1774712693151226997,7829,1774712693151226997,map,539,53.94030384037565,-8.153200337090993e-17,0.009012624994037382,0.0,0.0,0.9866418289268258,0.16290457762729765,3.823530883509785,0.015085394302772892,-3.551439365854721e-05,0.0,0.0,0.0
1774712693171217679,7830,1774712693171217679,map,540,54.01677507294695,-1.6132928326584306e-16,0.009012009246628889,0.0,0.0,0.9859596770009067,0.16698357801971947,3.860901330977164,0.01955204415907752,-1.1641408936266418e-05,0.0,0.0,0.0
1774712693191271066,7831,1774712693191271066,map,541,54.09399419019629,-8.894042983910574e-05,0.009011776414236679,0.0,0.0,0.9859596770009067,0.16698357801971947,3.860419159593119,0.06407247340569988,-1.1641408936266418e-05,0.0,0.0,0.0
1774712693211275815,7832,1774712693211275815,map,542,54.17121511637285,-0.00041527821796218806,0.009011889922758398,0.0,0.0,0.9850712149998204,0.17214732463438875,3.8937351685457826,0.07684800830737037,7.66286612908403e-06,0.0,0.0,0.0
1774712693231266498,7833,1774712693231266498,map,542,54.24910426145033,-7.28583859910259e-17,0.009012138505179332,0.0,0.0,0.9839685941599822,0.1783418226519742,3.927566518223888,0.028082604494125585,1.5627546727266742e-05,0.0,0.0,0.0
1774712693251278638,7834,1774712693251278638,map,543,54.32765690808355,-1.8388068845354155e-16,0.009012484140327215,0.0,0.0,0.9826384029153851,0.1855310462318947,3.957428767145781,0.032115672270690565,2.0791639750935216e-05,0.0,0.0,0.0
1774712693271278381,7835,1774712693271278381,map,544,54.40680747510483,-3.664603343001005e-17,0.00901290535919117,0.0,0.0,0.9810693361485758,0.1936568038283002,3.9867314428798477,0.03616263781174611,2.5152123866171666e-05,0.0,0.0,0.0
1774712693291282653,7836,1774712693291282653,map,545,54.48654722124347,-0.00029372257023873964,0.009013408426634877,0.0,0.0,0.9810693361485758,0.1936568038283002,3.9852845892028936,0.11332288839238203,2.5152123866171666e-05,0.0,0.0,0.0
1774712693311271905,7837,1774712693311271905,map,546,54.56628921418657,-0.0007503938519713479,0.009013798630943887,0.0,0.0,0.9792415702442296,0.20269668745595085,4.011633954162478,0.12502926663729452,1.8304740621920166e-05,0.0,0.0,0.0
1774712693331266880,7838,1774712693331266880,map,546,54.646557548542624,2.255140518769849e-16,0.009013923624747315,0.0,0.0,0.9771372021065319,0.2126097087609562,4.039330447627809,0.043984611441180155,-3.3013902600802243e-06,0.0,0.0,0.0
1774712693351277828,7839,1774712693351277828,map,547,54.727347682757326,1.196959198423997e-16,0.009013706107254283,0.0,0.0,0.9747315986662314,0.2233792975223373,4.06318056807839,0.04780707027860398,-2.7345208927745757e-05,0.0,0.0,0.0
1774712693371282100,7840,1774712693371282100,map,548,54.80861581697253,1.3227266504323154e-16,0.009013123421070517,0.0,0.0,0.9720016469128263,0.23497403771215536,4.086339454384941,0.05166894737824279,-4.871275822893176e-05,0.0,0.0,0.0
1774712693391281843,7841,1774712693391281843,map,549,54.89035178202609,-0.0003011047900540482,0.009012149094463245,0.0,0.0,0.9720016469128263,0.23497403771215536,4.083543175279423,0.15973400205278154,-4.871275822893176e-05,0.0,0.0,0.0
1774712693411270856,7842,1774712693411270856,map,550,54.97209173717206,-0.0008364034705881686,0.009010685839410532,0.0,0.0,0.9689171529925593,0.24738542931384117,4.104571204168802,0.17136994847739473,-7.751844417988082e-05,0.0,0.0,0.0
1774712693431278228,7843,1774712693431278228,map,551,55.0542625790702,-0.00142259301213115,0.009008778597097242,0.0,0.0,0.965446180443442,0.26060251853573624,4.125112495789359,0.183076475444663,-0.00010596720360247015,0.0,0.0,0.0
1774712693451275348,7844,1774712693451275348,map,551,55.13683084591655,-1.3530843112619095e-16,0.009006928597828643,0.0,0.0,0.9615548362251278,0.274612994834672,4.148225777719225,0.06334802684862151,-7.460773627113983e-05,0.0,0.0,0.0
1774712693471280097,7845,1774712693471280097,map,552,55.21980393507913,9.194034422677078e-17,0.009005751159110668,0.0,0.0,0.9572073390598489,0.2894030235674179,4.1674004403038065,0.0672252861856606,-2.308449318012856e-06,0.0,0.0,0.0
1774712693491283655,7846,1774712693491283655,map,553,55.30316151218294,-2.527275264063711e-16,0.009005717502395394,0.0,0.0,0.9523718462071158,0.304939119419024,4.185798667874306,0.07107863331810349,3.465525379918439e-05,0.0,0.0,0.0
1774712693511271953,7847,1774712693511271953,map,554,55.38689738121239,-0.0005204332973193218,0.009006410662404107,0.0,0.0,0.9523718462071158,0.304939119419024,4.180741079845701,0.2176388815696051,3.465525379918439e-05,0.0,0.0,0.0
1774712693531280040,7848,1774712693531280040,map,555,55.47063584468679,-0.0011395368941812863,0.009007512292300256,0.0,0.0,0.9470136373360153,0.3211933540713602,4.198387494196197,0.22856755622584846,5.974155001387497e-05,0.0,0.0,0.0
1774712693551280975,7849,1774712693551280975,map,556,55.5547395136764,-0.0017913928706044628,0.009009042979394621,0.0,0.0,0.9411078749450096,0.33810644435811676,4.215846533323771,0.23905471223796337,8.676608633932969e-05,0.0,0.0,0.0
1774712693571277141,7850,1774712693571277141,map,556,55.639165262490195,-1.5959455978986625e-16,0.009010514806896085,0.0,0.0,0.9346287068330377,0.3556250558714946,4.23991036188026,0.0817806836142072,5.7252259370959484e-05,0.0,0.0,0.0
1774712693591277122,7851,1774712693591277122,map,557,55.723977958017564,1.8561541192951836e-16,0.009011311468464253,0.0,0.0,0.9275527714573077,0.37369219440853646,4.258150749875914,0.08501570755969778,-9.293540173443451e-06,0.0,0.0,0.0
1774712693611243963,7852,1774712693611243963,map,558,55.80915663855205,-1.2533377113932431e-16,0.009011027496543002,0.0,0.0,0.9198649703222465,0.3922351799291501,4.27671345809873,0.08814457395192443,-6.605944220593924e-05,0.0,0.0,0.0
1774712693631281137,7853,1774712693631281137,map,559,55.894713880663055,-0.0002959889405723874,0.009009706179407346,0.0,0.0,0.9198649703222465,0.3922351799291501,4.269250891669285,0.26747764543229513,-6.605944220593924e-05,0.0,0.0,0.0
1774712693651270627,7854,1774712693651270627,map,560,55.980278554058074,-0.000924884369679059,0.009007607765246289,0.0,0.0,0.9115491137727981,0.41119121243045337,4.2882224599153975,0.2756197116244321,-0.00010889493174442378,0.0,0.0,0.0
1774712693671269416,7855,1774712693671269416,map,561,56.06623275586019,-0.0015622971118253587,0.009004927442324086,0.0,0.0,0.9026016341503083,0.43047681706358265,4.307808227232297,0.2829929523565038,-0.00014304518748176268,0.0,0.0,0.0
1774712693691236972,7856,1774712693691236972,map,562,56.152587646040985,-0.0021998649911515455,0.0090017356554181,0.0,0.0,0.8930295254828725,0.4499980740134736,4.328316216773235,0.2896092384943125,-0.00017197699067749233,0.0,0.0,0.0
1774712693711275577,7857,1774712693711275577,map,562,56.23930838175212,4.683753385137379e-16,0.00899843772434913,0.0,0.0,0.8828332640892711,0.4696865207960341,4.359082965722695,0.09794688144156694,-0.00015636105467187574,0.0,0.0,0.0
1774712693731283187,7858,1774712693731283187,map,563,56.32651071787533,2.1684043449710089e-16,0.008995572700511429,0.0,0.0,0.8720312436995867,0.4894502119845818,4.382020055211064,0.09971432660123347,-0.0001106554909297138,0.0,0.0,0.0
1774712693751286268,7859,1774712693751286268,map,564,56.414172317900395,2.92300905702092e-16,0.008993406439562281,0.0,0.0,0.8606503161851409,0.5091964584032542,4.406315928487246,0.10132109798173317,-9.450965968390787e-05,0.0,0.0,0.0
1774712693771277666,7860,1774712693771277666,map,565,56.50232040127479,-1.465841337200402e-16,0.008991518466594092,0.0,0.0,0.8487031905547121,0.5288694492426765,4.431974479023606,0.10258843334871837,-7.475847715192988e-05,0.0,0.0,0.0
1774712693791285514,7861,1774712693791285514,map,566,56.59099379552217,-0.0005016113074268707,0.00899002310056872,0.0,0.0,0.8487031905547121,0.5288694492426765,4.422431164761644,0.30826086467742964,-7.475847715192988e-05,0.0,0.0,0.0
1774712693811274290,7862,1774712693811274290,map,567,56.67966783276888,-0.0010308000377098007,0.00898923475287699,0.0,0.0,0.8362222263412888,0.548390725826776,4.448821434618392,0.31110112787981703,-3.47149341717107e-05,0.0,0.0,0.0
1774712693831282138,7863,1774712693831282138,map,568,56.76887186077872,-0.001534746352260476,0.008989115453279324,0.0,0.0,0.8232432365557619,0.5676887998412457,4.477026504235709,0.3134005199503158,3.5522356295246095e-06,0.0,0.0,0.0
1774712693851280212,7864,1774712693851280212,map,569,56.858641121390576,-0.0020092196626884384,0.008989609403806113,0.0,0.0,0.8097927059594933,0.5867160926502712,4.50637440254231,0.3151023205658696,3.719949065142628e-05,0.0,0.0,0.0
1774712693871279001,7865,1774712693871279001,map,569,56.948953942994684,-8.326672684688674e-17,0.008990705509360293,0.0,0.0,0.7959142810427127,0.6054093303148389,4.546459508677836,0.10570226157905638,7.13951017049403e-05,0.0,0.0,0.0
1774712693891281604,7866,1774712693891281604,map,570,57.039906380151606,-1.0495077029659683e-16,0.008992563954164135,0.0,0.0,0.7816390937415063,0.6237309733650852,4.578666560586649,0.10600999420138879,0.00012362123866720617,0.0,0.0,0.0
1774712693911269903,7867,1774712693911269903,map,571,57.131503037119565,3.686287386450715e-16,0.008995219392671318,0.0,0.0,0.7670039395588409,0.6416423900438762,4.611673682380623,0.10611167945375966,0.00015288631160846177,0.0,0.0,0.0
1774712693931284904,7868,1774712693931284904,map,572,57.223759814905314,2.8362728832220796e-16,0.008998070614609695,0.0,0.0,0.7520577619692139,0.6590972027416421,4.645790291880421,0.10615266776206539,0.00011022947408896717,0.0,0.0,0.0
1774712693951267480,7869,1774712693951267480,map,573,57.31669898560883,1.2479167005308156e-16,0.009000143224913666,0.0,0.0,0.736830128162004,0.6760779261540527,4.681351563914541,0.10598821010909582,6.949130013571735e-05,0.0,0.0,0.0
1774712693971286535,7870,1774712693971286535,map,574,57.41034925641198,3.228754069661832e-16,0.009001462496922432,0.0,0.0,0.7213624038041789,0.6925577826996507,4.7176546440846066,0.10566879826252672,3.095095143916464e-05,0.0,0.0,0.0
1774712693991284847,7871,1774712693991284847,map,575,57.504725380733305,1.6004179318601652e-16,0.009002031037823294,0.0,0.0,0.705703453962872,0.7085073288716727,4.755011120502881,0.10527829433779717,-5.137383638832213e-05,0.0,0.0,0.0
1774712694011270284,7872,1774712694011270284,map,576,57.59985028181359,-8.635402025357355e-05,0.00900100345106709,0.0,0.0,0.705703453962872,0.7085073288716727,4.745815759850299,0.31376271574205505,-5.137383638832213e-05,0.0,0.0,0.0
1774712694031285762,7873,1774712694031285762,map,577,57.69497779866813,-0.00029633007732782684,0.008998315866696364,0.0,0.0,0.6898838029528849,0.7239201188137163,4.784397729219299,0.3120249002707873,-0.0001372168089653422,0.0,0.0,0.0
1774712694051283597,7874,1774712694051283597,map,578,57.79087211710236,-0.00046720685979826054,0.008994626970344496,0.0,0.0,0.6739425356660483,0.7387837698677585,4.823567901394169,0.30995241275334834,-0.00018958304934318847,0.0,0.0,0.0
1774712694071284055,7875,1774712694071284055,map,579,57.88754465713956,-0.0005995864500687718,0.008991024350357313,0.0,0.0,0.6579202247654106,0.7530876295920892,4.863576975067763,0.30764355303426594,-0.000180372006084786,0.0,0.0,0.0
1774712694091283559,7876,1774712694091283559,map,580,57.98501195251626,-0.0006944252934077706,0.008988265099535564,0.0,0.0,0.641843406309578,0.7668357332420797,4.904205027982172,0.3050936437112919,-0.00013173858902344027,0.0,0.0,0.0
1774712694111253976,7877,1774712694111253976,map,581,58.08328637318746,-0.000752788218489348,0.008986890513652595,0.0,0.0,0.6257501988269408,0.7800235180224018,4.9451549438532165,0.30244692989852795,-5.6160236416491985e-05,0.0,0.0,0.0
1774712694131247758,7878,1774712694131247758,map,582,58.18237426480062,-0.0007766723101697596,0.008987561726564841,0.0,0.0,0.6096632418874067,0.7926605398853518,4.986677945182553,0.2998425546431207,5.4685234638140476e-05,0.0,0.0,0.0
1774712694151281833,7879,1774712694151281833,map,583,58.28228741409146,-0.0007673055309292097,0.008990686944838134,0.0,0.0,0.5935978906924603,0.804761793430492,5.028369723997956,0.2972938825301581,0.00018232831177011864,0.0,0.0,0.0
1774712694171281337,7880,1774712694171281337,map,584,58.38302942374652,-0.0007259369888605524,0.008996194591587818,0.0,0.0,0.5775690366747213,0.8163418449856864,5.070297028878255,0.29478249498527376,0.00030022819634055627,0.0,0.0,0.0
1774712694191280126,7881,1774712694191280126,map,585,58.48460508720157,-0.0006542172861162248,0.00900370059014419,0.0,0.0,0.5615831501689438,0.827420307610543,5.112360541836493,0.29224937741573265,0.0003955446301159103,0.0,0.0,0.0
1774712694211285591,7882,1774712694211285591,map,586,58.58701747011904,-0.000553492977020161,0.009012597878191045,0.0,0.0,0.5456599590113045,0.8380066879994345,5.154477777139992,0.2897946384263035,0.0004585001606236934,0.0,0.0,0.0
1774712694231286525,7883,1774712694231286525,map,587,58.69026766751584,-0.00042535257699532515,0.009021970241792094,0.0,0.0,0.5298040101659212,0.8481201040018498,5.1965704801673285,0.2874101300575469,0.00047405004176498487,0.0,0.0,0.0
1774712694251279592,7884,1774712694251279592,map,588,58.79435562390784,-0.00027089328825210396,0.009030762611727094,0.0,0.0,0.5140242393113749,0.8577756591325977,5.238654831595861,0.2850500414690402,0.0004387327958571352,0.0,0.0,0.0
1774712694271282196,7885,1774712694271282196,map,589,58.89928116945191,-9.162066953562306e-05,0.00903806079693298,0.0,0.0,0.49832728734334747,0.8669889934070795,5.280498473969783,0.2827643768251318,0.00036201362407495204,0.0,0.0,0.0
1774712694291285514,7886,1774712694291285514,map,590,59.00504174237094,-2.8514517136368767e-16,0.009042981326903511,0.0,0.0,0.46720479036260776,0.8841491298769861,5.370114230090527,0.09349562891220531,0.00011249840792637498,0.0,0.0,0.0
1774712694311285495,7887,1774712694311285495,map,591,59.112461443335285,-4.163336342344337e-17,0.009044936570530435,0.0,0.0,0.4517808422792379,0.8921289539912166,5.411345759172774,0.09281541556407058,-3.734349511462446e-05,0.0,0.0,0.0
1774712694331289291,7888,1774712694331289291,map,592,59.220705645509085,1.5612511283791264e-16,0.009043740136518446,0.0,0.0,0.43645463065896495,0.899726266914747,5.45196481700191,0.0921003359582735,-0.00016771652942768053,0.0,0.0,0.0
1774712694351281642,7889,1774712694351281642,map,593,59.329761789241914,-3.9898639947466563e-16,0.009039872137193374,0.0,0.0,0.42123255853574554,0.9069526622869739,5.492582437248666,0.09145009255051129,-0.0002700305260327886,0.0,0.0,0.0
1774712694371283292,7890,1774712694371283292,map,594,59.43963029741393,-9.020562075079397e-17,0.009033987767529651,0.0,0.0,0.4061125102986864,0.913823084069832,5.532459473023563,0.09080950517303776,-0.00034276142858720524,0.0,0.0,0.0
1774712694391282320,7891,1774712694391282320,map,595,59.55029580830109,-2.42861286636753e-17,0.009026784748569314,0.0,0.0,0.3910947396170876,0.9203504249164242,5.572289169432178,0.09022334875463667,-0.000385136089602677,0.0,0.0,0.0
1774712694411284923,7892,1774712694411284923,map,597,59.66176276746286,-0.001270189648186825,0.009018980882844722,0.0,0.0,0.3761789313517129,0.9265470369102063,5.605696861910553,0.2671136467662927,-0.0003972031425992137,0.0,0.0,0.0
1774712694431286573,7893,1774712694431286573,map,598,59.77399943399265,-0.0008711951839234927,0.009011297282498667,0.0,0.0,0.3613721328504262,0.9324216758522583,5.644701052413224,0.2654112553651564,-0.000379452052887711,0.0,0.0,0.0
1774712694451283693,7894,1774712694451283693,map,599,59.88701360312823,-0.0004587410669827409,0.009004343585305503,0.0,0.0,0.3466707972761649,0.9379868646819678,5.682966594305762,0.2637301063519186,-0.00033948202899887416,0.0,0.0,0.0
1774712694471287250,7895,1774712694471287250,map,600,60.00079073627056,-3.3553766062560685e-05,0.008998578708191124,0.0,0.0,0.33207936219534967,0.9432514496166596,5.720896074980728,0.2621439606235736,-0.00028235104700383986,0.0,0.0,0.0
1774712694491283416,7896,1774712694491283416,map,601,60.115330211183775,6.826136877968736e-16,0.008994420859342437,0.0,0.0,0.30321553791471373,0.9529219997287768,5.80009017927863,0.08685340986664203,-0.00014991834586813635,0.0,0.0,0.0
1774712694511289119,7897,1774712694511289119,map,602,60.23134707983686,-4.0939474033052647e-16,0.008991731938773484,0.0,0.0,0.28894206683644236,0.9573465840604879,5.8362881539715845,0.08633960805853658,-8.943698387693248e-05,0.0,0.0,0.0
1774712694531288623,7898,1774712694531288623,map,603,60.34808783058601,7.389922007661198e-16,0.008990302137797036,0.0,0.0,0.274777979219318,0.961507702588049,5.871695200656517,0.08584160004046248,-4.431158637719477e-05,0.0,0.0,0.0
1774712694551281213,7899,1774712694551281213,map,605,60.46553848534994,-0.0010436856514046255,0.008989773595618429,0.0,0.0,0.2607200597278253,0.9654144449175801,5.9019561737598085,0.2547694519879862,-1.1358363743888624e-05,0.0,0.0,0.0
1774712694571286678,7900,1774712694571286678,map,606,60.583682206189806,-0.0005174734581917147,0.008989958454175585,0.0,0.0,0.24676797210881757,0.9690745935898339,5.936130548821381,0.25345264875732854,1.851326850934991e-05,0.0,0.0,0.0
1774712694591297626,7901,1774712694591297626,map,607,60.70250805890429,-2.668763647573069e-16,0.008990775975327561,0.0,0.0,0.2191711649614357,0.9756864252665643,6.007736687867452,0.08403803848447433,6.302821662855702e-05,0.0,0.0,0.0
1774712694611291885,7902,1774712694611291885,map,608,60.82267695633645,-3.616898447411643e-16,0.008992069122806902,0.0,0.0,0.20552628154569375,0.9786515966338584,6.040482420199694,0.08363689505096561,7.280829262746665e-05,0.0,0.0,0.0
1774712694631265640,7903,1774712694631265640,map,609,60.94350064847783,-1.43982048506075e-16,0.008993612455074929,0.0,0.0,0.19198091627079075,0.9813986589494749,6.072074972838099,0.08321844340010554,8.589409617243325e-05,0.0,0.0,0.0
1774712694651268243,7904,1774712694651268243,map,611,61.06495780475133,-0.0009973319691334703,0.00899553001930557,0.0,0.0,0.178536017547787,0.983933377032295,6.098997451172001,0.24740687935188022,0.00010565565899196036,0.0,0.0,0.0
1774712694671303510,7905,1774712694671303510,map,612,61.18703251726889,-0.000398171346354813,0.008997778040971419,0.0,0.0,0.1651873061718313,0.9862622135515958,6.129539161985597,0.24630831768759798,0.00011588955094425578,0.0,0.0,0.0
1774712694691265106,7906,1774712694691265106,map,613,61.3097194191006,3.673276960380889e-16,0.008999888739462853,0.0,0.0,0.13877778674883468,0.9903235460722395,6.193302103666796,0.08173909673743585,8.716474037932746e-05,0.0,0.0,0.0
1774712694711299657,7907,1774712694711299657,map,614,61.43359871920823,8.352693536828326e-16,0.009001552023083984,0.0,0.0,0.12571634636988782,0.992066227756699,6.221957309556219,0.08139143348939193,7.180722677898608e-05,0.0,0.0,0.0
1774712694731289148,7908,1774712694731289148,map,616,61.558055433273935,-0.0011324530864810934,0.009002882079970598,0.0,0.0,0.11274766258933669,0.9936236533922898,6.246026395486209,0.24226102807519356,6.029856186492251e-05,0.0,0.0,0.0
1774712694751260757,7909,1774712694751260757,map,617,61.683064001353415,-0.00048333681546705327,0.009003980155599191,0.0,0.0,0.09986982585944779,0.9950005114987648,6.273413734287372,0.24137022665579788,5.220318271188445e-05,0.0,0.0,0.0
1774712694771287202,7910,1774712694771287202,map,618,61.808621398723055,-7.385585198971256e-16,0.009004806276589377,0.0,0.0,0.07437689920772575,0.9972302025431459,6.330728352505345,0.08014071125149158,1.2712628489987707e-05,0.0,0.0,0.0
1774712694791292667,7911,1774712694791292667,map,619,61.93524842430731,-7.671814572507429e-16,0.009004860635990567,0.0,0.0,0.061764145127454435,0.9980907726137311,6.356731816913507,0.07985612120210528,-2.540556698575584e-05,0.0,0.0,0.0
1774712694811291694,7912,1774712694811291694,map,621,62.06239894106885,-0.000982135802634813,0.009004242875219993,0.0,0.0,0.049237581100580984,0.9987870947340898,6.377662062255042,0.2379392189284138,-3.7078652352784435e-05,0.0,0.0,0.0
1774712694831299543,7913,1774712694831299543,map,622,62.19003478842046,-0.0002939512248442961,0.009003762264765071,0.0,0.0,0.036794180239821464,0.999322864894264,6.4025746343646155,0.23713954694752873,-1.8236233588754753e-05,0.0,0.0,0.0
1774712694851277589,7914,1774712694851277589,map,623,62.31817267450416,8.715088112981606e-16,0.009004090677663057,0.0,0.0,0.01216062692603312,0.9999260568425876,6.453989790729928,0.07878117558622821,5.2848300256514794e-05,0.0,0.0,0.0
1774712694871262788,7915,1774712694871262788,map,624,62.44726424758661,-3.174543961037557e-16,0.00900528340417184,0.0,0.0,-3.11702824170936e-05,0.9999999995142067,6.476767250676913,0.0785343269147766,7.243683593447528e-05,0.0,0.0,0.0
1774712694891267776,7916,1774712694891267776,map,626,62.57681112851113,-0.0006036373257212428,0.009006694164599018,0.0,0.0,-0.01214310843655926,0.9999262697406734,6.495719176615567,0.2341496721793338,6.938307301856902e-05,0.0,0.0,0.0
1774712694911289930,7917,1774712694911289930,map,627,62.706804821304985,-9.063930161978817e-17,0.009007948431048405,0.0,0.0,-0.036120587478594667,0.9993474386619506,6.54304734522575,0.07779163838454206,5.2007394392296435e-05,0.0,0.0,0.0
